[{"name": "MONTEREAU-FAULT-YONNE", "address": "1, rue Pierre Brossolette 77130 MONTEREAU-FAULT-YONNE", "geo": {"type": "FeatureCollection", "version": "draft", "features": [{"type": "Feature", "geometry": {"type": "Point", "coordinates": [2.951058, 48.384687]}, "properties": {"label": "1 Rue Pierre Brossolette 77130 Montereau-Fault-Yonne", "score": 0.956281818181818, "housenumber": "1", "id": "77305_1170_00001", "name": "1 Rue Pierre Brossolette", "postcode": "77130", "citycode": "77305", "x": 696376.42, "y": 6809377.57, "city": "Montereau-Fault-Yonne", "context": "77, Seine-et-Marne, \u00cele-de-France", "type": "housenumber", "importance": 0.5191, "street": "Rue Pierre Brossolette"}}], "attribution": "BAN", "licence": "ETALAB-2.0", "query": "1, rue Pierre Brossolette 77130 MONTEREAU-FAULT-YONNE", "limit": 1}}, {"name": "LA GRANDE-PAROISSE", "address": "Rue Clovis Moriot 77130 LA GRANDE-PAROISSE", "geo": {"type": "FeatureCollection", "version": "draft", "features": [{"type": "Feature", "geometry": {"type": "Point", "coordinates": [2.900629, 48.386145]}, "properties": {"label": "Rue Clovis Moriot 77130 La Grande-Paroisse", "score": 0.943270909090909, "id": "77210_yxkhne", "name": "Rue Clovis Moriot", "postcode": "77130", "citycode": "77210", "x": 692642.96, "y": 6809543.14, "city": "La Grande-Paroisse", "context": "77, Seine-et-Marne, \u00cele-de-France", "type": "street", "importance": 0.37598}}], "attribution": "BAN", "licence": "ETALAB-2.0", "query": "Rue Clovis Moriot 77130 LA GRANDE-PAROISSE", "limit": 1}}, {"name": "BRAY-SUR-SEINE", "address": "Rue Pasteur 77480 BRAY-SUR-SEINE", "geo": {"type": "FeatureCollection", "version": "draft", "features": [{"type": "Feature", "geometry": {"type": "Point", "coordinates": [3.236005, 48.409938]}, "properties": {"label": "Rue Pasteur 77480 Bray-sur-Seine", "score": 0.9464245454545454, "id": "77051_0635", "name": "Rue Pasteur", "postcode": "77480", "citycode": "77051", "x": 717464.96, "y": 6812209.27, "city": "Bray-sur-Seine", "context": "77, Seine-et-Marne, \u00cele-de-France", "type": "street", "importance": 0.41067}}], "attribution": "BAN", "licence": "ETALAB-2.0", "query": "Rue Pasteur 77480 BRAY-SUR-SEINE", "limit": 1}}, {"name": "DONNEMARIE-DONTILLY", "address": "24, boulevard d'Haussonville 77520 DONNEMARIE-DONTILLY", "geo": {"type": "FeatureCollection", "version": "draft", "features": [{"type": "Feature", "geometry": {"type": "Point", "coordinates": [3.125297, 48.478616]}, "properties": {"label": "24 Boulevard d\u2019Haussonville 77520 Donnemarie-Dontilly", "score": 0.9552818181818181, "housenumber": "24", "id": "77159_0480_00024", "name": "24 Boulevard d\u2019Haussonville", "postcode": "77520", "citycode": "77159", "x": 709260.19, "y": 6819824.54, "city": "Donnemarie-Dontilly", "context": "77, Seine-et-Marne, \u00cele-de-France", "type": "housenumber", "importance": 0.5081, "street": "Boulevard d\u2019Haussonville"}}], "attribution": "BAN", "licence": "ETALAB-2.0", "query": "24, boulevard d'Haussonville 77520 DONNEMARIE-DONTILLY", "limit": 1}}, {"name": "PROVINS", "address": "9, avenue Andr\u00e9 Malraux 77160 PROVINS", "geo": {"type": "FeatureCollection", "version": "draft", "features": [{"type": "Feature", "geometry": {"type": "Point", "coordinates": [3.293045, 48.555258]}, "properties": {"label": "9 Avenue Andr\u00e9 Malraux 77160 Provins", "score": 0.9596163636363635, "housenumber": "9", "id": "77379_0034_00009", "name": "9 Avenue Andr\u00e9 Malraux", "postcode": "77160", "citycode": "77379", "x": 721626.1, "y": 6828377.08, "city": "Provins", "context": "77, Seine-et-Marne, \u00cele-de-France", "type": "housenumber", "importance": 0.55578, "street": "Avenue Andr\u00e9 Malraux"}}], "attribution": "BAN", "licence": "ETALAB-2.0", "query": "9, avenue Andr\u00e9 Malraux 77160 PROVINS", "limit": 1}}, {"name": "MAISON-ROUGE", "address": "Place de la Mairie 77370 MAISON-ROUGE", "geo": {"type": "FeatureCollection", "version": "draft", "features": [{"type": "Feature", "geometry": {"type": "Point", "coordinates": [3.146277, 48.575415]}, "properties": {"label": "Sainte-Marie 77370 Maison-Rouge", "score": 0.5279177161862527, "id": "77272_B090", "name": "Sainte-Marie", "postcode": "77370", "citycode": "77272", "x": 710790.8, "y": 6830587.74, "city": "Maison-Rouge", "context": "77, Seine-et-Marne, \u00cele-de-France", "type": "street", "importance": 0.31929}}], "attribution": "BAN", "licence": "ETALAB-2.0", "query": "Place de la Mairie 77370 MAISON-ROUGE", "limit": 1}}, {"name": "NANGIS", "address": "79, rue des Fontaines 77370 NANGIS", "geo": {"type": "FeatureCollection", "version": "draft", "features": [{"type": "Feature", "geometry": {"type": "Point", "coordinates": [3.010121, 48.56085]}, "properties": {"label": "79 Rue des Fontaines 77370 Nangis", "score": 0.964930909090909, "housenumber": "79", "id": "77327_0210_00079", "name": "79 Rue des Fontaines", "postcode": "77370", "citycode": "77327", "x": 700746.83, "y": 6828958.64, "city": "Nangis", "context": "77, Seine-et-Marne, \u00cele-de-France", "type": "housenumber", "importance": 0.61424, "street": "Rue des Fontaines"}}], "attribution": "BAN", "licence": "ETALAB-2.0", "query": "79, rue des Fontaines 77370 NANGIS", "limit": 1}}, {"name": "VILLIERS-SAINT-GEORGES", "address": "2 bis, rue du Clos de la Ferme 77560 VILLIERS-SAINT-GEORGES", "geo": {"type": "FeatureCollection", "version": "draft", "features": [{"type": "Feature", "geometry": {"type": "Point", "coordinates": [3.407604, 48.64772]}, "properties": {"label": "2bis Rue du Clos de la Ferme 77560 Villiers-Saint-Georges", "score": 0.8174457053291535, "housenumber": "2bis", "id": "77519_0060_00002_bis", "name": "2bis Rue du Clos de la Ferme", "postcode": "77560", "citycode": "77519", "x": 730027.18, "y": 6838693.51, "city": "Villiers-Saint-Georges", "context": "77, Seine-et-Marne, \u00cele-de-France", "type": "housenumber", "importance": 0.45742, "street": "Rue du Clos de la Ferme"}}], "attribution": "BAN", "licence": "ETALAB-2.0", "query": "2 bis, rue du Clos de la Ferme 77560 VILLIERS-SAINT-GEORGES", "limit": 1}}, {"name": "CHENOISE", "address": "1, route de B\u00e9ton 77160 CHENOISE", "geo": {"type": "FeatureCollection", "version": "draft", "features": [{"type": "Feature", "geometry": {"type": "Point", "coordinates": [3.24647, 48.627465]}, "properties": {"label": "1 Route de Chenoise 77160 Saint-Hilliers", "score": 0.6456490322580644, "housenumber": "1", "id": "77414_0040_00001", "name": "1 Route de Chenoise", "postcode": "77160", "citycode": "77414", "x": 718163.92, "y": 6836392.53, "city": "Saint-Hilliers", "context": "77, Seine-et-Marne, \u00cele-de-France", "type": "housenumber", "importance": 0.42472, "street": "Route de Chenoise"}}], "attribution": "BAN", "licence": "ETALAB-2.0", "query": "1, route de B\u00e9ton 77160 CHENOISE", "limit": 1}}, {"name": "MONTCEAUX-L\u00c8S-PROVINS", "address": "Rue de l'\u00c9glise, 77151 Montceaux-l\u00e8s-Provins, France", "geo": {"type": "FeatureCollection", "version": "draft", "features": [{"type": "Feature", "geometry": {"type": "Point", "coordinates": [3.43692, 48.694372]}, "properties": {"label": "Rue de l\u2019Eglise 77151 Montceaux-l\u00e8s-Provins", "score": 0.7322250649350648, "id": "77301_0015", "name": "Rue de l\u2019Eglise", "postcode": "77151", "citycode": "77301", "x": 732158.1, "y": 6843891.61, "city": "Montceaux-l\u00e8s-Provins", "context": "77, Seine-et-Marne, \u00cele-de-France", "type": "street", "importance": 0.34019}}], "attribution": "BAN", "licence": "ETALAB-2.0", "query": "Rue de l'\u00c9glise, 77151 Montceaux-l\u00e8s-Provins, France", "limit": 1}}, {"name": "BETON-BAZOCHES", "address": "2 chemin des Chailloux 77970 BEZALLES", "geo": {"type": "FeatureCollection", "version": "draft", "features": [{"type": "Feature", "geometry": {"type": "Point", "coordinates": [3.245345, 48.664157]}, "properties": {"label": "2 Chemin des Chaillaux 77970 Bezalles", "score": 0.7621665071770335, "housenumber": "2", "id": "77033_ntpozd_00002", "name": "2 Chemin des Chaillaux", "postcode": "77970", "citycode": "77033", "x": 718068.33, "y": 6840471.47, "city": "Bezalles", "context": "77, Seine-et-Marne, \u00cele-de-France", "type": "housenumber", "importance": 0.3312, "street": "Chemin des Chaillaux"}}], "attribution": "BAN", "licence": "ETALAB-2.0", "query": "2 chemin des Chailloux 77970 BEZALLES", "limit": 1}}, {"name": "JOUY-LE-CH\u00c2TEL", "address": "42 bis, rue de Paris 77970 JOUY-LE-CH\u00c2TEL", "geo": {"type": "FeatureCollection", "version": "draft", "features": [{"type": "Feature", "geometry": {"type": "Point", "coordinates": [3.126115, 48.66806]}, "properties": {"label": "Rue de Paris 77970 Jouy-le-Ch\u00e2tel", "score": 0.7174277622377622, "id": "77239_0200", "name": "Rue de Paris", "postcode": "77970", "citycode": "77239", "x": 709287.01, "y": 6840884.74, "city": "Jouy-le-Ch\u00e2tel", "context": "77, Seine-et-Marne, \u00cele-de-France", "type": "street", "importance": 0.50709}}], "attribution": "BAN", "licence": "ETALAB-2.0", "query": "42 bis, rue de Paris 77970 JOUY-LE-CH\u00c2TEL", "limit": 1}}, {"name": "ROZAY-EN-BRIE", "address": "19 Rue Arthur Rimbaud, 77540 Rozay-en-Brie, France", "geo": {"type": "FeatureCollection", "version": "draft", "features": [{"type": "Feature", "geometry": {"type": "Point", "coordinates": [2.969257, 48.683807]}, "properties": {"label": "19 Rue Arthur Rimbaud 77540 Rozay-en-Brie", "score": 0.7419349516441005, "housenumber": "19", "id": "77393_0050_00019", "name": "19 Rue Arthur Rimbaud", "postcode": "77540", "citycode": "77393", "x": 697736.79, "y": 6842628.47, "city": "Rozay-en-Brie", "context": "77, Seine-et-Marne, \u00cele-de-France", "type": "housenumber", "importance": 0.50171, "street": "Rue Arthur Rimbaud"}}], "attribution": "BAN", "licence": "ETALAB-2.0", "query": "19 Rue Arthur Rimbaud, 77540 Rozay-en-Brie, France", "limit": 1}}, {"name": "FONTENAY-TR\u00c9SIGNY", "address": "Rue Bertaux, 77610 Fontenay-Tr\u00e9signy, France", "geo": {"type": "FeatureCollection", "version": "draft", "features": [{"type": "Feature", "geometry": {"type": "Point", "coordinates": [2.859397, 48.709596]}, "properties": {"label": "Rue Bertaux 77610 Fontenay-Tr\u00e9signy", "score": 0.7353386031042128, "id": "77192_0040", "name": "Rue Bertaux", "postcode": "77610", "citycode": "77192", "x": 689654.33, "y": 6845504.45, "city": "Fontenay-Tr\u00e9signy", "context": "77, Seine-et-Marne, \u00cele-de-France", "type": "street", "importance": 0.62531}}], "attribution": "BAN", "licence": "ETALAB-2.0", "query": "Rue Bertaux, 77610 Fontenay-Tr\u00e9signy, France", "limit": 1}}, {"name": "AMILLIS", "address": "Place de la Mairie 77120 AMILLIS", "geo": {"type": "FeatureCollection", "version": "draft", "features": [{"type": "Feature", "geometry": {"type": "Point", "coordinates": [3.037647, 48.821365]}, "properties": {"label": "Place de la Mairie 77120 Mouroux", "score": 0.6555681231671553, "id": "77320_0880", "name": "Place de la Mairie", "postcode": "77120", "citycode": "77320", "x": 702764.17, "y": 6857923.05, "city": "Mouroux", "context": "77, Seine-et-Marne, \u00cele-de-France", "type": "street", "importance": 0.53383}}], "attribution": "BAN", "licence": "ETALAB-2.0", "query": "Place de la Mairie 77120 AMILLIS", "limit": 1}}, {"name": "TOUQUIN", "address": "Place de la Mairie, 77131 Touquin, France", "geo": {"type": "FeatureCollection", "version": "draft", "features": [{"type": "Feature", "geometry": {"type": "Point", "coordinates": [3.011903, 48.735677]}, "properties": {"label": "Place de la Mairie 77131 Touquin", "score": 0.7067386602870812, "id": "77469_0140", "name": "Place de la Mairie", "postcode": "77131", "citycode": "77469", "x": 700875.39, "y": 6848395.04, "city": "Touquin", "context": "77, Seine-et-Marne, \u00cele-de-France", "type": "street", "importance": 0.43202}}], "attribution": "BAN", "licence": "ETALAB-2.0", "query": "Place de la Mairie, 77131 Touquin, France", "limit": 1}}, {"name": "MEILLERAY", "address": "Rue de la Mairie, MEILLERAY", "geo": {"type": "FeatureCollection", "version": "draft", "features": [{"type": "Feature", "geometry": {"type": "Point", "coordinates": [3.421878, 48.789271]}, "properties": {"label": "Place de la Mairie 77320 Meilleray", "score": 0.6803828213166144, "id": "77287_0067", "name": "Place de la Mairie", "postcode": "77320", "citycode": "77287", "x": 730994.62, "y": 6854436.66, "city": "Meilleray", "context": "77, Seine-et-Marne, \u00cele-de-France", "type": "street", "importance": 0.34628}}], "attribution": "BAN", "licence": "ETALAB-2.0", "query": "Rue de la Mairie, MEILLERAY", "limit": 1}}, {"name": "LA FERT\u00c9-GAUCHER", "address": "24 Rue Albert Gaulard, 77320 La Fert\u00e9-Gaucher, France", "geo": {"type": "FeatureCollection", "version": "draft", "features": [{"type": "Feature", "geometry": {"type": "Point", "coordinates": [3.303215, 48.788424]}, "properties": {"label": "24 Rue Albert Gaulard 77320 La Fert\u00e9-Gaucher", "score": 0.7526518181818181, "housenumber": "24", "id": "77182_0013_00024", "name": "24 Rue Albert Gaulard", "postcode": "77320", "citycode": "77182", "x": 722277.07, "y": 6854302.46, "city": "La Fert\u00e9-Gaucher", "context": "77, Seine-et-Marne, \u00cele-de-France", "type": "housenumber", "importance": 0.53917, "street": "Rue Albert Gaulard"}}], "attribution": "BAN", "licence": "ETALAB-2.0", "query": "24 Rue Albert Gaulard, 77320 La Fert\u00e9-Gaucher, France", "limit": 1}}, {"name": "SAINT-REMY-DE-LA-VANNE", "address": "47 hameau Montmogis 77320 SAINT-REMY-la-VANNE", "geo": {"type": "FeatureCollection", "version": "draft", "features": [{"type": "Feature", "geometry": {"type": "Point", "coordinates": [3.244398, 48.817647]}, "properties": {"label": "Montmogis 77320 Saint-R\u00e9my-la-Vanne", "score": 0.6635432231404959, "id": "77432_qjorqa", "name": "Montmogis", "postcode": "77320", "citycode": "77432", "x": 717945.77, "y": 6857536.76, "city": "Saint-R\u00e9my-la-Vanne", "context": "77, Seine-et-Marne, \u00cele-de-France", "type": "street", "importance": 0.34443}}], "attribution": "BAN", "licence": "ETALAB-2.0", "query": "47 hameau Montmogis 77320 SAINT-REMY-la-VANNE", "limit": 1}}, {"name": "REBAIS", "address": "6, rue G. Cl\u00e9menceau 77510 REBAIS", "geo": {"type": "FeatureCollection", "version": "draft", "features": [{"type": "Feature", "geometry": {"type": "Point", "coordinates": [3.233882, 48.848766]}, "properties": {"label": "6 Avenue Georges Clemenceau 77510 Rebais", "score": 0.5661303896103896, "housenumber": "6", "id": "77385_u58prd_00006", "name": "6 Avenue Georges Clemenceau", "postcode": "77510", "citycode": "77385", "x": 717163.35, "y": 6860994.61, "city": "Rebais", "context": "77, Seine-et-Marne, \u00cele-de-France", "type": "housenumber", "importance": 0.44172, "street": "Avenue Georges Clemenceau"}}], "attribution": "BAN", "licence": "ETALAB-2.0", "query": "6, rue G. Cl\u00e9menceau 77510 REBAIS", "limit": 1}}, {"name": "VILLENEUVE-SUR-BELLOT", "address": "8 bis rue de Montflageol 77510 VILLENEUVE-sur-BELLOT", "geo": {"type": "FeatureCollection", "version": "draft", "features": [{"type": "Feature", "geometry": {"type": "Point", "coordinates": [3.340168, 48.862656]}, "properties": {"label": "8b Rue de Montflageol 77510 Villeneuve-sur-Bellot", "score": 0.7648233155080213, "housenumber": "8b", "id": "77512_0299_00008_b", "name": "8b Rue de Montflageol", "postcode": "77510", "citycode": "77512", "x": 724956.42, "y": 6862567.44, "city": "Villeneuve-sur-Bellot", "context": "77, Seine-et-Marne, \u00cele-de-France", "type": "housenumber", "importance": 0.47188, "street": "Rue de Montflageol"}}], "attribution": "BAN", "licence": "ETALAB-2.0", "query": "8 bis rue de Montflageol 77510 VILLENEUVE-sur-BELLOT", "limit": 1}}, {"name": "GROUPEMENT EST", "address": "9 Avenue Andr\u00e9 Malraux, Provins, France", "geo": {"type": "FeatureCollection", "version": "draft", "features": [{"type": "Feature", "geometry": {"type": "Point", "coordinates": [3.293045, 48.555258]}, "properties": {"label": "9 Avenue Andr\u00e9 Malraux 77160 Provins", "score": 0.7096163636363637, "housenumber": "9", "id": "77379_0034_00009", "name": "9 Avenue Andr\u00e9 Malraux", "postcode": "77160", "citycode": "77379", "x": 721626.1, "y": 6828377.08, "city": "Provins", "context": "77, Seine-et-Marne, \u00cele-de-France", "type": "housenumber", "importance": 0.55578, "street": "Avenue Andr\u00e9 Malraux"}}], "attribution": "BAN", "licence": "ETALAB-2.0", "query": "9 Avenue Andr\u00e9 Malraux, Provins, France", "limit": 1}}, {"name": "GROUPEMENT SUD", "address": "2 Rue Gambetta, Avon, France", "geo": {"type": "FeatureCollection", "version": "draft", "features": [{"type": "Feature", "geometry": {"type": "Point", "coordinates": [2.719248, 48.400937]}, "properties": {"label": "2 Rue Gambetta 77210 Avon", "score": 0.6482872727272726, "housenumber": "2", "id": "77014_0230_00002", "name": "2 Rue Gambetta", "postcode": "77210", "citycode": "77014", "x": 679220.11, "y": 6811219.62, "city": "Avon", "context": "77, Seine-et-Marne, \u00cele-de-France", "type": "housenumber", "importance": 0.65116, "street": "Rue Gambetta"}}], "attribution": "BAN", "licence": "ETALAB-2.0", "query": "2 Rue Gambetta, Avon, France", "limit": 1}}, {"name": "GARAGE DE PROXIMIT\u00c9 DE THOMERY", "address": "5 Rue Baptiste Larpenteur, Thomery, France", "geo": {"type": "FeatureCollection", "version": "draft", "features": [{"type": "Feature", "geometry": {"type": "Point", "coordinates": [2.790012, 48.41034]}, "properties": {"label": "Rue Baptiste Larpenteur 77810 Thomery", "score": 0.664616083916084, "id": "77463_0015", "name": "Rue Baptiste Larpenteur", "postcode": "77810", "citycode": "77463", "x": 684460.48, "y": 6812248.51, "city": "Thomery", "context": "77, Seine-et-Marne, \u00cele-de-France", "type": "street", "importance": 0.3877}}], "attribution": "BAN", "licence": "ETALAB-2.0", "query": "5 Rue Baptiste Larpenteur, Thomery, France", "limit": 1}}, {"name": "BEAUMONT-DU-G\u00c2TINAIS", "address": "10 Rue de la Laiterie, 77890 Beaumont-du-G\u00e2tinais, France", "geo": {"type": "FeatureCollection", "version": "draft", "features": [{"type": "Feature", "geometry": {"type": "Point", "coordinates": [2.483124, 48.137544]}, "properties": {"label": "10 Rue de la Laiterie 77890 Beaumont-du-G\u00e2tinais", "score": 0.7554893939393938, "housenumber": "10", "id": "77027_0220_00010", "name": "10 Rue de la Laiterie", "postcode": "77890", "citycode": "77027", "x": 661551.93, "y": 6782034.39, "city": "Beaumont-du-G\u00e2tinais", "context": "77, Seine-et-Marne, \u00cele-de-France", "type": "housenumber", "importance": 0.47705, "street": "Rue de la Laiterie"}}], "attribution": "BAN", "licence": "ETALAB-2.0", "query": "10 Rue de la Laiterie, 77890 Beaumont-du-G\u00e2tinais, France", "limit": 1}}, {"name": "CH\u00c2TEAU-LANDON", "address": "Route de Jallemain, 77570 Ch\u00e2teau-Landon, France", "geo": {"type": "FeatureCollection", "version": "draft", "features": [{"type": "Feature", "geometry": {"type": "Point", "coordinates": [2.695402, 48.143245]}, "properties": {"label": "Route de Jallemain 77570 Ch\u00e2teau-Landon", "score": 0.7379990909090909, "id": "77099_0765", "name": "Route de Jallemain", "postcode": "77570", "citycode": "77099", "x": 677344.67, "y": 6782585.81, "city": "Ch\u00e2teau-Landon", "context": "77, Seine-et-Marne, \u00cele-de-France", "type": "street", "importance": 0.51799}}], "attribution": "BAN", "licence": "ETALAB-2.0", "query": "Route de Jallemain, 77570 Ch\u00e2teau-Landon, France", "limit": 1}}, {"name": "\u00c9GREVILLE", "address": "28 ter, rue de la Poterne 77620 \u00c9GREVILLE", "geo": {"type": "FeatureCollection", "version": "draft", "features": [{"type": "Feature", "geometry": {"type": "Point", "coordinates": [2.876419, 48.177284]}, "properties": {"label": "Rue de la Poterne 77620 \u00c9greville", "score": 0.7193532167832167, "id": "77168_0620", "name": "Rue de la Poterne", "postcode": "77620", "citycode": "77168", "x": 690814.22, "y": 6786332.19, "city": "\u00c9greville", "context": "77, Seine-et-Marne, \u00cele-de-France", "type": "street", "importance": 0.52827}}], "attribution": "BAN", "licence": "ETALAB-2.0", "query": "28 ter, rue de la Poterne 77620 \u00c9GREVILLE", "limit": 1}}, {"name": "SOUPPES-SUR-LOING", "address": "28, rue Etienne Thoizon 77460 SOUPPES-SUR-LOING", "geo": {"type": "FeatureCollection", "version": "draft", "features": [{"type": "Feature", "geometry": {"type": "Point", "coordinates": [2.742352, 48.184432]}, "properties": {"label": "28 Rue Etienne Thoizon 77460 Souppes-sur-Loing", "score": 0.9634081818181818, "housenumber": "28", "id": "77458_0080_00028", "name": "28 Rue Etienne Thoizon", "postcode": "77460", "citycode": "77458", "x": 680851.63, "y": 6787150.64, "city": "Souppes-sur-Loing", "context": "77, Seine-et-Marne, \u00cele-de-France", "type": "housenumber", "importance": 0.59749, "street": "Rue Etienne Thoizon"}}], "attribution": "BAN", "licence": "ETALAB-2.0", "query": "28, rue Etienne Thoizon 77460 SOUPPES-SUR-LOING", "limit": 1}}, {"name": "LORREZ-LE-BOCAGE-PR\u00c9AUX", "address": "34 Rue Emile Bru, 77710 Lorrez-le-Bocage-Pr\u00e9aux, France", "geo": {"type": "FeatureCollection", "version": "draft", "features": [{"type": "Feature", "geometry": {"type": "Point", "coordinates": [2.903946, 48.236603]}, "properties": {"label": "34 Rue Emile Bru 77710 Lorrez-le-Bocage-Pr\u00e9aux", "score": 0.7553692307692307, "housenumber": "34", "id": "77261_0080_00034", "name": "34 Rue Emile Bru", "postcode": "77710", "citycode": "77261", "x": 692868.32, "y": 6792921.9, "city": "Lorrez-le-Bocage-Pr\u00e9aux", "context": "77, Seine-et-Marne, \u00cele-de-France", "type": "housenumber", "importance": 0.5206, "street": "Rue Emile Bru"}}], "attribution": "BAN", "licence": "ETALAB-2.0", "query": "34 Rue Emile Bru, 77710 Lorrez-le-Bocage-Pr\u00e9aux, France", "limit": 1}}, {"name": "VOULX", "address": "14, route de Saint-Ange 77940 VOULX", "geo": {"type": "FeatureCollection", "version": "draft", "features": [{"type": "Feature", "geometry": {"type": "Point", "coordinates": [2.957291, 48.280273]}, "properties": {"label": "14 Route de Saint-Ange 77940 Voulx", "score": 0.9430727272727272, "housenumber": "14", "id": "77531_0385_00014", "name": "14 Route de Saint-Ange", "postcode": "77940", "citycode": "77531", "x": 696831.63, "y": 6797771.96, "city": "Voulx", "context": "77, Seine-et-Marne, \u00cele-de-France", "type": "housenumber", "importance": 0.3738, "street": "Route de Saint-Ange"}}], "attribution": "BAN", "licence": "ETALAB-2.0", "query": "14, route de Saint-Ange 77940 VOULX", "limit": 1}}, {"name": "NEMOURS", "address": "13, avenue Kennedy 77140 NEMOURS", "geo": {"type": "FeatureCollection", "version": "draft", "features": [{"type": "Feature", "geometry": {"type": "Point", "coordinates": [2.709317, 48.26461]}, "properties": {"label": "13 Avenue John Kennedy 77140 Nemours", "score": 0.7542332467532465, "housenumber": "13", "id": "77333_0396_00013", "name": "13 Avenue John Kennedy", "postcode": "77140", "citycode": "77333", "x": 678429.28, "y": 6796069.98, "city": "Nemours", "context": "77, Seine-et-Marne, \u00cele-de-France", "type": "housenumber", "importance": 0.58228, "street": "Avenue John Kennedy"}}], "attribution": "BAN", "licence": "ETALAB-2.0", "query": "13, avenue Kennedy 77140 NEMOURS", "limit": 1}}, {"name": "LA CHAPELLE-LA-REINE", "address": "9 Rue de Villionne, 77760 La Chapelle-la-Reine, France", "geo": {"type": "FeatureCollection", "version": "draft", "features": [{"type": "Feature", "geometry": {"type": "Point", "coordinates": [2.569322, 48.320431]}, "properties": {"label": "9 Rue de Villione 77760 La Chapelle-la-Reine", "score": 0.7375186631016042, "housenumber": "9", "id": "77088_0403_00009", "name": "9 Rue de Villione", "postcode": "77760", "citycode": "77088", "x": 668074.6, "y": 6802321.52, "city": "La Chapelle-la-Reine", "context": "77, Seine-et-Marne, \u00cele-de-France", "type": "housenumber", "importance": 0.52447, "street": "Rue de Villione"}}], "attribution": "BAN", "licence": "ETALAB-2.0", "query": "9 Rue de Villionne, 77760 La Chapelle-la-Reine, France", "limit": 1}}, {"name": "BOURRON-MARLOTTE", "address": "All\u00e9e des \u00c9coles, 77780 Bourron-Marlotte, France", "geo": {"type": "FeatureCollection", "version": "draft", "features": [{"type": "Feature", "geometry": {"type": "Point", "coordinates": [2.707835, 48.34147]}, "properties": {"label": "Allee des Ecoles 77780 Bourron-Marlotte", "score": 0.7250945454545453, "type": "locality", "importance": 0.37604, "id": "77048_0329", "name": "Allee des Ecoles", "postcode": "77780", "citycode": "77048", "x": 678350.92, "y": 6804612.94, "city": "Bourron-Marlotte", "context": "77, Seine-et-Marne, \u00cele-de-France"}}], "attribution": "BAN", "licence": "ETALAB-2.0", "query": "All\u00e9e des \u00c9coles, 77780 Bourron-Marlotte, France", "limit": 1}}, {"name": "MORET-SUR-LOING", "address": "Place du Champs de Foire, 77250, Moret-sur-Loing", "geo": {"type": "FeatureCollection", "version": "draft", "features": [{"type": "Feature", "geometry": {"type": "Point", "coordinates": [2.817052, 48.371989]}, "properties": {"label": "Rue du Puits du Four 77250 Moret-Loing-et-Orvanne", "score": 0.38572074380165294, "id": "77316_0540", "name": "Rue du Puits du Four", "postcode": "77250", "citycode": "77316", "oldcitycode": "77316", "x": 686451.61, "y": 6807980.75, "city": "Moret-Loing-et-Orvanne", "oldcity": "Moret-sur-Loing", "context": "77, Seine-et-Marne, \u00cele-de-France", "type": "street", "importance": 0.56111}}], "attribution": "BAN", "licence": "ETALAB-2.0", "query": "Place du Champs de Foire, 77250, Moret-sur-Loing", "limit": 1}}, {"name": "CHAMPAGNE-SUR-SEINE", "address": "33 Rue Henri Paul, 77430 Champagne-sur-Seine, France", "geo": {"type": "FeatureCollection", "version": "draft", "features": [{"type": "Feature", "geometry": {"type": "Point", "coordinates": [2.799701, 48.392214]}, "properties": {"label": "33 Rue Henri Paul 77430 Champagne-sur-Seine", "score": 0.754436883116883, "housenumber": "33", "id": "77079_0350_00033", "name": "33 Rue Henri Paul", "postcode": "77430", "citycode": "77079", "x": 685172.37, "y": 6810231.9, "city": "Champagne-sur-Seine", "context": "77, Seine-et-Marne, \u00cele-de-France", "type": "housenumber", "importance": 0.58452, "street": "Rue Henri Paul"}}], "attribution": "BAN", "licence": "ETALAB-2.0", "query": "33 Rue Henri Paul, 77430 Champagne-sur-Seine, France", "limit": 1}}, {"name": "FONTAINEBLEAU", "address": "2 Place Orloff, 77300 Fontainebleau, France", "geo": {"type": "FeatureCollection", "version": "draft", "features": [{"type": "Feature", "geometry": {"type": "Point", "coordinates": [2.712829, 48.413634]}, "properties": {"label": "2 Place Orloff 77300 Fontainebleau", "score": 0.7199881818181818, "housenumber": "2", "id": "77186_0911_00002", "name": "2 Place Orloff", "postcode": "77300", "citycode": "77186", "x": 678750.14, "y": 6812632.63, "city": "Fontainebleau", "context": "77, Seine-et-Marne, \u00cele-de-France", "type": "housenumber", "importance": 0.49487, "street": "Place Orloff"}}], "attribution": "BAN", "licence": "ETALAB-2.0", "query": "2 Place Orloff, 77300 Fontainebleau, France", "limit": 1}}, {"name": "VULAINES-SUR-SEINE", "address": "54 Route d'Hericy, 77870 Vulaines-sur-Seine, France", "geo": {"type": "FeatureCollection", "version": "draft", "features": [{"type": "Feature", "geometry": {"type": "Point", "coordinates": [2.752876, 48.434426]}, "properties": {"label": "54 Route d\u2019H\u00e9ricy 77870 Vulaines-sur-Seine", "score": 0.7507399999999999, "housenumber": "54", "id": "77533_0420_00054", "name": "54 Route d\u2019H\u00e9ricy", "postcode": "77870", "citycode": "77533", "x": 681720.73, "y": 6814933.73, "city": "Vulaines-sur-Seine", "context": "77, Seine-et-Marne, \u00cele-de-France", "type": "housenumber", "importance": 0.57064, "street": "Route d\u2019H\u00e9ricy"}}], "attribution": "BAN", "licence": "ETALAB-2.0", "query": "54 Route d'Hericy, 77870 Vulaines-sur-Seine, France", "limit": 1}}, {"name": "BOIS-LE-ROI", "address": "11 Rue des Foucherolles, Bois-le-Roi, France", "geo": {"type": "FeatureCollection", "version": "draft", "features": [{"type": "Feature", "geometry": {"type": "Point", "coordinates": [2.714816, 48.474482]}, "properties": {"label": "11 Rue des Foucherolles 77590 Bois-le-Roi", "score": 0.7267176940133037, "housenumber": "11", "id": "77037_0355_00011", "name": "11 Rue des Foucherolles", "postcode": "77590", "citycode": "77037", "x": 678921.6, "y": 6819395.72, "city": "Bois-le-Roi", "context": "77, Seine-et-Marne, \u00cele-de-France", "type": "housenumber", "importance": 0.53048, "street": "Rue des Foucherolles"}}], "attribution": "BAN", "licence": "ETALAB-2.0", "query": "11 Rue des Foucherolles, Bois-le-Roi, France", "limit": 1}}, {"name": "CENTRE DE FORMATION D\u00c9PARTEMENTAL", "address": "2 Rue Amp\u00e8re, 77520 Gurcy-le-Ch\u00e2tel, France", "geo": {"type": "FeatureCollection", "version": "draft", "features": [{"type": "Feature", "geometry": {"type": "Point", "coordinates": [3.082457, 48.473084]}, "properties": {"label": "2 Rue Amp\u00e8re 77520 Gurcy-le-Ch\u00e2tel", "score": 0.7197154545454544, "housenumber": "2", "id": "77223_0020_00002", "name": "2 Rue Amp\u00e8re", "postcode": "77520", "citycode": "77223", "x": 706094.7, "y": 6819205.44, "city": "Gurcy-le-Ch\u00e2tel", "context": "77, Seine-et-Marne, \u00cele-de-France", "type": "housenumber", "importance": 0.49187, "street": "Rue Amp\u00e8re"}}], "attribution": "BAN", "licence": "ETALAB-2.0", "query": "2 Rue Amp\u00e8re, 77520 Gurcy-le-Ch\u00e2tel, France", "limit": 1}}, {"name": "GROUPEMENT CENTRE", "address": "181 Impasse Antoine Lavoisier, Vaux-le-P\u00e9nil, France", "geo": {"type": "FeatureCollection", "version": "draft", "features": [{"type": "Feature", "geometry": {"type": "Point", "coordinates": [2.692009, 48.532606]}, "properties": {"label": "181 Impasse Antoine Lavoisier 77000 Vaux-le-P\u00e9nil", "score": 0.7459405194805193, "housenumber": "181", "id": "77487_0337_00181", "name": "181 Impasse Antoine Lavoisier", "postcode": "77000", "citycode": "77487", "x": 677261.1, "y": 6825863.17, "city": "Vaux-le-P\u00e9nil", "context": "77, Seine-et-Marne, \u00cele-de-France", "type": "housenumber", "importance": 0.49106, "street": "Impasse Antoine Lavoisier"}}], "attribution": "BAN", "licence": "ETALAB-2.0", "query": "181 Impasse Antoine Lavoisier, Vaux-le-P\u00e9nil, France", "limit": 1}}, {"name": "SERVICES TECHNIQUES", "address": "18 Rue du Laiton, Savigny-le-Temple, France", "geo": {"type": "FeatureCollection", "version": "draft", "features": [{"type": "Feature", "geometry": {"type": "Point", "coordinates": [2.590383, 48.591521]}, "properties": {"label": "18 Rue du Laiton 77176 Savigny-le-Temple", "score": 0.7281754545454544, "housenumber": "18", "id": "77445_vjc1yy_00018", "name": "18 Rue du Laiton", "postcode": "77176", "citycode": "77445", "x": 669792.12, "y": 6832446.59, "city": "Savigny-le-Temple", "context": "77, Seine-et-Marne, \u00cele-de-France", "type": "housenumber", "importance": 0.58493, "street": "Rue du Laiton"}}], "attribution": "BAN", "licence": "ETALAB-2.0", "query": "18 Rue du Laiton, Savigny-le-Temple, France", "limit": 1}}, {"name": "PERTHES-EN-G\u00c2TINAIS", "address": "50 rue de la Fosse aux Moines 77930 PERTHES-en-GATINAIS", "geo": {"type": "FeatureCollection", "version": "draft", "features": [{"type": "Feature", "geometry": {"type": "Point", "coordinates": [2.552629, 48.480558]}, "properties": {"label": "Rue de la Fosse aux Moines 77930 Perthes", "score": 0.6379818181818182, "id": "77359_0160", "name": "Rue de la Fosse aux Moines", "postcode": "77930", "citycode": "77359", "x": 666938.03, "y": 6820126.72, "city": "Perthes", "context": "77, Seine-et-Marne, \u00cele-de-France", "type": "street", "importance": 0.5178}}], "attribution": "BAN", "licence": "ETALAB-2.0", "query": "50 rue de la Fosse aux Moines 77930 PERTHES-en-GATINAIS", "limit": 1}}, {"name": "LE CH\u00c2TELET-EN-BRIE", "address": "Rue de la Loge aux Bergers 77820 LE CH\u00c2TELET-EN-BRIE", "geo": {"type": "FeatureCollection", "version": "draft", "features": [{"type": "Feature", "geometry": {"type": "Point", "coordinates": [2.791423, 48.507041]}, "properties": {"label": "Rue de la Loge aux Bergers 77820 Le Ch\u00e2telet-en-Brie", "score": 0.9559081818181817, "id": "77100_0681", "name": "Rue de la Loge aux Bergers", "postcode": "77820", "citycode": "77100", "x": 684593.29, "y": 6822997.29, "city": "Le Ch\u00e2telet-en-Brie", "context": "77, Seine-et-Marne, \u00cele-de-France", "type": "street", "importance": 0.51499}}], "attribution": "BAN", "licence": "ETALAB-2.0", "query": "Rue de la Loge aux Bergers 77820 LE CH\u00c2TELET-EN-BRIE", "limit": 1}}, {"name": "SAINT-FARGEAU-PONTHIERRY", "address": "9 Rue Emile Fil\u00e9e, 77310 Saint-Fargeau-Ponthierry, France", "geo": {"type": "FeatureCollection", "version": "draft", "features": [{"type": "Feature", "geometry": {"type": "Point", "coordinates": [2.545066, 48.524087]}, "properties": {"label": "9 Rue Emile Fil\u00e9e 77310 Saint-Fargeau-Ponthierry", "score": 0.758791212121212, "housenumber": "9", "id": "77407_0286_00009", "name": "9 Rue Emile Fil\u00e9e", "postcode": "77310", "citycode": "77407", "x": 666406.99, "y": 6824968.59, "city": "Saint-Fargeau-Ponthierry", "context": "77, Seine-et-Marne, \u00cele-de-France", "type": "housenumber", "importance": 0.51337, "street": "Rue Emile Fil\u00e9e"}}], "attribution": "BAN", "licence": "ETALAB-2.0", "query": "9 Rue Emile Fil\u00e9e, 77310 Saint-Fargeau-Ponthierry, France", "limit": 1}}, {"name": "DAMMARIE-L\u00c8S-LYS", "address": "94 Rue Galil\u00e9e, 77190 Dammarie-les-Lys, France", "geo": {"type": "FeatureCollection", "version": "draft", "features": [{"type": "Feature", "geometry": {"type": "Point", "coordinates": [2.634227, 48.520972]}, "properties": {"label": "94 Rue Galil\u00e9e 77190 Dammarie-les-Lys", "score": 0.7285739746300212, "housenumber": "94", "id": "77152_0323_00094", "name": "94 Rue Galil\u00e9e", "postcode": "77190", "citycode": "77152", "x": 672989.11, "y": 6824588.11, "city": "Dammarie-les-Lys", "context": "77, Seine-et-Marne, \u00cele-de-France", "type": "housenumber", "importance": 0.47943, "street": "Rue Galil\u00e9e"}}], "attribution": "BAN", "licence": "ETALAB-2.0", "query": "94 Rue Galil\u00e9e, 77190 Dammarie-les-Lys, France", "limit": 1}}, {"name": "VAUX-LE-P\u00c9NIL", "address": "109 Rue Pascal, 77000 Vaux-le-P\u00e9nil, France", "geo": {"type": "FeatureCollection", "version": "draft", "features": [{"type": "Feature", "geometry": {"type": "Point", "coordinates": [2.690947, 48.532862]}, "properties": {"label": "109 Rue Pascal 77000 Vaux-le-P\u00e9nil", "score": 0.7246354545454544, "housenumber": "109", "id": "77487_1245_00109", "name": "109 Rue Pascal", "postcode": "77000", "citycode": "77487", "x": 677182.81, "y": 6825891.94, "city": "Vaux-le-P\u00e9nil", "context": "77, Seine-et-Marne, \u00cele-de-France", "type": "housenumber", "importance": 0.54599, "street": "Rue Pascal"}}], "attribution": "BAN", "licence": "ETALAB-2.0", "query": "109 Rue Pascal, 77000 Vaux-le-P\u00e9nil, France", "limit": 1}}, {"name": "MELUN", "address": "56 Avenue de Corbeil, 77000 Melun, France", "geo": {"type": "FeatureCollection", "version": "draft", "features": [{"type": "Feature", "geometry": {"type": "Point", "coordinates": [2.63191, 48.552633]}, "properties": {"label": "56 Avenue de Corbeil 77000 Melun", "score": 0.7275432057416267, "housenumber": "56", "id": "77288_0340_00056", "name": "56 Avenue de Corbeil", "postcode": "77000", "citycode": "77288", "x": 672834.42, "y": 6828108.45, "city": "Melun", "context": "77, Seine-et-Marne, \u00cele-de-France", "type": "housenumber", "importance": 0.66087, "street": "Avenue de Corbeil"}}], "attribution": "BAN", "licence": "ETALAB-2.0", "query": "56 Avenue de Corbeil, 77000 Melun, France", "limit": 1}}, {"name": "SAVIGNY-LE-TEMPLE", "address": "Avenue des Routoires, 77176 Savigny-le-Temple, France", "geo": {"type": "FeatureCollection", "version": "draft", "features": [{"type": "Feature", "geometry": {"type": "Point", "coordinates": [2.547751, 48.600159]}, "properties": {"label": "Avenue des R\u00e9galles 77176 Savigny-le-Temple", "score": 0.6098895867768594, "id": "77445_1560", "name": "Avenue des R\u00e9galles", "postcode": "77176", "citycode": "77445", "x": 666653.68, "y": 6833424.02, "city": "Savigny-le-Temple", "context": "77, Seine-et-Marne, \u00cele-de-France", "type": "street", "importance": 0.65424}}], "attribution": "BAN", "licence": "ETALAB-2.0", "query": "Avenue des Routoires, 77176 Savigny-le-Temple, France", "limit": 1}}, {"name": "MORMANT", "address": "1 Rue du Capitaine Delanneau, 77720 Mormant, France", "geo": {"type": "FeatureCollection", "version": "draft", "features": [{"type": "Feature", "geometry": {"type": "Point", "coordinates": [2.890208, 48.60426]}, "properties": {"label": "Rue du Capitaine Delanneau 77720 Mormant", "score": 0.7077600000000001, "id": "77317_0159", "name": "Rue du Capitaine Delanneau", "postcode": "77720", "citycode": "77317", "x": 691905.14, "y": 6833790.06, "city": "Mormant", "context": "77, Seine-et-Marne, \u00cele-de-France", "type": "street", "importance": 0.47286}}], "attribution": "BAN", "licence": "ETALAB-2.0", "query": "1 Rue du Capitaine Delanneau, 77720 Mormant, France", "limit": 1}}, {"name": "GUIGNES", "address": "10 rue Saint Abdon 77390 GUIGNES", "geo": {"type": "FeatureCollection", "version": "draft", "features": [{"type": "Feature", "geometry": {"type": "Point", "coordinates": [2.808519, 48.628354]}, "properties": {"label": "10 Rue Saint Abdon 77390 Guignes", "score": 0.9577563636363635, "housenumber": "10", "id": "77222_0390_00010", "name": "10 Rue Saint Abdon", "postcode": "77390", "citycode": "77222", "x": 685888.8, "y": 6836480.12, "city": "Guignes", "context": "77, Seine-et-Marne, \u00cele-de-France", "type": "housenumber", "importance": 0.53532, "street": "Rue Saint Abdon"}}], "attribution": "BAN", "licence": "ETALAB-2.0", "query": "10 rue Saint Abdon 77390 GUIGNES", "limit": 1}}, {"name": "MOISSY-CRAMAYEL", "address": "831, avenue Jean-Jaur\u00e8s 77550 MOISSY-CRAMAYEL", "geo": {"type": "FeatureCollection", "version": "draft", "features": [{"type": "Feature", "geometry": {"type": "Point", "coordinates": [2.574682, 48.627349]}, "properties": {"label": "831 Avenue Jean Jaur\u00e8s 77550 Moissy-Cramayel", "score": 0.9671681818181818, "housenumber": "831", "id": "77296_0200_00831", "name": "831 Avenue Jean Jaur\u00e8s", "postcode": "77550", "citycode": "77296", "x": 668655.69, "y": 6836435.7, "city": "Moissy-Cramayel", "context": "77, Seine-et-Marne, \u00cele-de-France", "type": "housenumber", "importance": 0.63885, "street": "Avenue Jean Jaur\u00e8s"}}], "attribution": "BAN", "licence": "ETALAB-2.0", "query": "831, avenue Jean-Jaur\u00e8s 77550 MOISSY-CRAMAYEL", "limit": 1}}, {"name": "CHAUMES-EN-BRIE", "address": "1 Rue Soupir, 77390 Chaumes-en-Brie, France", "geo": {"type": "FeatureCollection", "version": "draft", "features": [{"type": "Feature", "geometry": {"type": "Point", "coordinates": [2.842472, 48.666329]}, "properties": {"label": "1 Rue Soupir 77390 Chaumes-en-Brie", "score": 0.7207181818181817, "housenumber": "1", "id": "77107_1040_00001", "name": "1 Rue Soupir", "postcode": "77390", "citycode": "77107", "x": 688399.38, "y": 6840696.45, "city": "Chaumes-en-Brie", "context": "77, Seine-et-Marne, \u00cele-de-France", "type": "housenumber", "importance": 0.5029, "street": "Rue Soupir"}}], "attribution": "BAN", "licence": "ETALAB-2.0", "query": "1 Rue Soupir, 77390 Chaumes-en-Brie, France", "limit": 1}}, {"name": "BRIE-COMTE-ROBERT", "address": "1, all\u00e9e du Commandant Guesnet 77170 BRIE-COMTE-ROBERT", "geo": {"type": "FeatureCollection", "version": "draft", "features": [{"type": "Feature", "geometry": {"type": "Point", "coordinates": [2.596438, 48.699813]}, "properties": {"label": "1 Allee du Commandant Guesnet 77170 Brie-Comte-Robert", "score": 0.9604236363636361, "housenumber": "1", "id": "77053_0066_00001", "name": "1 Allee du Commandant Guesnet", "postcode": "77170", "citycode": "77053", "x": 670300.18, "y": 6844483.46, "city": "Brie-Comte-Robert", "context": "77, Seine-et-Marne, \u00cele-de-France", "type": "housenumber", "importance": 0.56466, "street": "Allee du Commandant Guesnet"}}], "attribution": "BAN", "licence": "ETALAB-2.0", "query": "1, all\u00e9e du Commandant Guesnet 77170 BRIE-COMTE-ROBERT", "limit": 1}}, {"name": "TOURNAN-EN-BRIE", "address": "4 Rue de la Ligorne, 77220 Tournan-en-Brie, France", "geo": {"type": "FeatureCollection", "version": "draft", "features": [{"type": "Feature", "geometry": {"type": "Point", "coordinates": [2.779984, 48.741666]}, "properties": {"label": "4 Rue de la Ligorne 77220 Tournan-en-Brie", "score": 0.7480649516441006, "housenumber": "4", "id": "77470_0682_00004", "name": "4 Rue de la Ligorne", "postcode": "77220", "citycode": "77470", "x": 683821.02, "y": 6849083.39, "city": "Tournan-en-Brie", "context": "77, Seine-et-Marne, \u00cele-de-France", "type": "housenumber", "importance": 0.56914, "street": "Rue de la Ligorne"}}], "attribution": "BAN", "licence": "ETALAB-2.0", "query": "4 Rue de la Ligorne, 77220 Tournan-en-Brie, France", "limit": 1}}, {"name": "OZOIR-LA-FERRI\u00c8RE", "address": "5 All\u00e9e Br\u00e8che aux Loups, 77330 Ozoir-la-Ferri\u00e8re, France", "geo": {"type": "FeatureCollection", "version": "draft", "features": [{"type": "Feature", "geometry": {"type": "Point", "coordinates": [2.676555, 48.764362]}, "properties": {"label": "5 All\u00e9e de la Br\u00e8che aux Loups 77330 Ozoir-la-Ferri\u00e8re", "score": 0.7229076271186441, "housenumber": "5", "id": "77350_0113_00005", "name": "5 All\u00e9e de la Br\u00e8che aux Loups", "postcode": "77330", "citycode": "77350", "x": 676225.69, "y": 6851633, "city": "Ozoir-la-Ferri\u00e8re", "context": "77, Seine-et-Marne, \u00cele-de-France", "type": "housenumber", "importance": 0.62995, "street": "All\u00e9e de la Br\u00e8che aux Loups"}}], "attribution": "BAN", "licence": "ETALAB-2.0", "query": "5 All\u00e9e Br\u00e8che aux Loups, 77330 Ozoir-la-Ferri\u00e8re, France", "limit": 1}}, {"name": "PONTAULT-COMBAULT", "address": "1 Rue de l'\u00c9pinette, 77340 Pontault-Combault, France", "geo": {"type": "FeatureCollection", "version": "draft", "features": [{"type": "Feature", "geometry": {"type": "Point", "coordinates": [2.61241, 48.778694]}, "properties": {"label": "1 Rue de l\u2019Epinette 77340 Pontault-Combault", "score": 0.756586883116883, "housenumber": "1", "id": "77373_0524_00001", "name": "1 Rue de l\u2019Epinette", "postcode": "77340", "citycode": "77373", "x": 671518.67, "y": 6853247.73, "city": "Pontault-Combault", "context": "77, Seine-et-Marne, \u00cele-de-France", "type": "housenumber", "importance": 0.60817, "street": "Rue de l\u2019Epinette"}}], "attribution": "BAN", "licence": "ETALAB-2.0", "query": "1 Rue de l'\u00c9pinette, 77340 Pontault-Combault, France", "limit": 1}}, {"name": "FERRI\u00c8RES-EN-BRIE", "address": "Avenue Eug\u00e8ne Lamy, 77164 Ferri\u00e8res-en-Brie, France", "geo": {"type": "FeatureCollection", "version": "draft", "features": [{"type": "Feature", "geometry": {"type": "Point", "coordinates": [2.707869, 48.826394]}, "properties": {"label": "Avenue Eug\u00e8ne Lami 77164 Ferri\u00e8res-en-Brie", "score": 0.6749027272727273, "id": "77181_0164", "name": "Avenue Eug\u00e8ne Lami", "postcode": "77164", "citycode": "77181", "x": 678552.88, "y": 6858521.25, "city": "Ferri\u00e8res-en-Brie", "context": "77, Seine-et-Marne, \u00cele-de-France", "type": "street", "importance": 0.40393}}], "attribution": "BAN", "licence": "ETALAB-2.0", "query": "Avenue Eug\u00e8ne Lamy, 77164 Ferri\u00e8res-en-Brie, France", "limit": 1}}, {"name": "LOGNES", "address": "1 Rue du Village, 77185 Lognes, France", "geo": {"type": "FeatureCollection", "version": "draft", "features": [{"type": "Feature", "geometry": {"type": "Point", "coordinates": [2.627265, 48.838113]}, "properties": {"label": "1 Rue du Village 77185 Lognes", "score": 0.7052563636363637, "housenumber": "1", "id": "77258_4810_00001", "name": "1 Rue du Village", "postcode": "77185", "citycode": "77258", "x": 672641.44, "y": 6859849.22, "city": "Lognes", "context": "77, Seine-et-Marne, \u00cele-de-France", "type": "housenumber", "importance": 0.55782, "street": "Rue du Village"}}], "attribution": "BAN", "licence": "ETALAB-2.0", "query": "1 Rue du Village, 77185 Lognes, France", "limit": 1}}, {"name": "CHESSY", "address": "Rue du Grand Secours, 77700 Chessy, France", "geo": {"type": "FeatureCollection", "version": "draft", "features": [{"type": "Feature", "geometry": {"type": "Point", "coordinates": [2.768674, 48.856951]}, "properties": {"label": "Boulevard du Grand Foss\u00e9 77700 Chessy", "score": 0.45039181818181817, "id": "77111_0284", "name": "Boulevard du Grand Foss\u00e9", "postcode": "77700", "citycode": "77111", "x": 683026.88, "y": 6861904.18, "city": "Chessy", "context": "77, Seine-et-Marne, \u00cele-de-France", "type": "street", "importance": 0.45431}}], "attribution": "BAN", "licence": "ETALAB-2.0", "query": "Rue du Grand Secours, 77700 Chessy, France", "limit": 1}}, {"name": "LAGNY-SUR-MARNE", "address": "39, rue St Laurent 77400 LAGNY-SUR-MARNE", "geo": {"type": "FeatureCollection", "version": "draft", "features": [{"type": "Feature", "geometry": {"type": "Point", "coordinates": [2.706072, 48.874778]}, "properties": {"label": "39 Rue Saint Laurent 77400 Lagny-sur-Marne", "score": 0.7809419480519479, "housenumber": "39", "id": "77243_1640_00039", "name": "39 Rue Saint Laurent", "postcode": "77400", "citycode": "77243", "x": 678440.98, "y": 6863901.73, "city": "Lagny-sur-Marne", "context": "77, Seine-et-Marne, \u00cele-de-France", "type": "housenumber", "importance": 0.66179, "street": "Rue Saint Laurent"}}], "attribution": "BAN", "licence": "ETALAB-2.0", "query": "39, rue St Laurent 77400 LAGNY-SUR-MARNE", "limit": 1}}, {"name": "VAIRES-SUR-MARNE", "address": "23 Rue de Chelles, 77360 Vaires-sur-Marne, France", "geo": {"type": "FeatureCollection", "version": "draft", "features": [{"type": "Feature", "geometry": {"type": "Point", "coordinates": [2.636433, 48.87428]}, "properties": {"label": "23 Rue de Chelles 77360 Vaires-sur-Marne", "score": 0.7531367984189723, "housenumber": "23", "id": "77479_0130_00023", "name": "23 Rue de Chelles", "postcode": "77360", "citycode": "77479", "x": 673332.87, "y": 6863867.62, "city": "Vaires-sur-Marne", "context": "77, Seine-et-Marne, \u00cele-de-France", "type": "housenumber", "importance": 0.65407, "street": "Rue de Chelles"}}], "attribution": "BAN", "licence": "ETALAB-2.0", "query": "23 Rue de Chelles, 77360 Vaires-sur-Marne, France", "limit": 1}}, {"name": "CHELLES", "address": "Rue du Tir, 77500 Chelles, France", "geo": {"type": "FeatureCollection", "version": "draft", "features": [{"type": "Feature", "geometry": {"type": "Point", "coordinates": [2.592124, 48.888047]}, "properties": {"label": "Rue du Tir 77500 Chelles", "score": 0.6888154545454546, "id": "77108_3460", "name": "Rue du Tir", "postcode": "77500", "citycode": "77108", "x": 670090.81, "y": 6865414.34, "city": "Chelles", "context": "77, Seine-et-Marne, \u00cele-de-France", "type": "street", "importance": 0.67697}}], "attribution": "BAN", "licence": "ETALAB-2.0", "query": "Rue du Tir, 77500 Chelles, France", "limit": 1}}, {"name": "VILLEPARISIS", "address": "22 Rue Joseph Lhoste, 77270 Villeparisis, France", "geo": {"type": "FeatureCollection", "version": "draft", "features": [{"type": "Feature", "geometry": {"type": "Point", "coordinates": [2.61943, 48.938254]}, "properties": {"label": "22 Rue Joseph Lhoste 77270 Villeparisis", "score": 0.74384, "housenumber": "22", "id": "77514_0730_00022", "name": "22 Rue Joseph Lhoste", "postcode": "77270", "citycode": "77514", "x": 672120.02, "y": 6870987.33, "city": "Villeparisis", "context": "77, Seine-et-Marne, \u00cele-de-France", "type": "housenumber", "importance": 0.58224, "street": "Rue Joseph Lhoste"}}], "attribution": "BAN", "licence": "ETALAB-2.0", "query": "22 Rue Joseph Lhoste, 77270 Villeparisis, France", "limit": 1}}, {"name": "CLAYE-SOUILLY", "address": "Rue Victor Drouet, 77410 Claye-Souilly, France", "geo": {"type": "FeatureCollection", "version": "draft", "features": [{"type": "Feature", "geometry": {"type": "Point", "coordinates": [2.673135, 48.94975]}, "properties": {"label": "Rue Victor Drouet 77410 Claye-Souilly", "score": 0.7378185200845666, "id": "77118_1280", "name": "Rue Victor Drouet", "postcode": "77410", "citycode": "77118", "x": 676059.64, "y": 6872248.09, "city": "Claye-Souilly", "context": "77, Seine-et-Marne, \u00cele-de-France", "type": "street", "importance": 0.58112}}], "attribution": "BAN", "licence": "ETALAB-2.0", "query": "Rue Victor Drouet, 77410 Claye-Souilly, France", "limit": 1}}, {"name": "COULOMMIERS", "address": "160 Avenue de Rebais, 77120 Coulommiers, France", "geo": {"type": "FeatureCollection", "version": "draft", "features": [{"type": "Feature", "geometry": {"type": "Point", "coordinates": [3.097054, 48.814461]}, "properties": {"label": "Avenue de Rebais 77120 Coulommiers", "score": 0.6753472727272727, "id": "77131_0820", "name": "Avenue de Rebais", "postcode": "77120", "citycode": "77131", "x": 707126.97, "y": 6857159.11, "city": "Coulommiers", "context": "77, Seine-et-Marne, \u00cele-de-France", "type": "street", "importance": 0.67882}}], "attribution": "BAN", "licence": "ETALAB-2.0", "query": "160 Avenue de Rebais, 77120 Coulommiers, France", "limit": 1}}, {"name": "FAREMOUTIERS", "address": "3/5 Impasse des Saules, 77515 Faremoutiers, France", "geo": {"type": "FeatureCollection", "version": "draft", "features": [{"type": "Feature", "geometry": {"type": "Point", "coordinates": [2.98662, 48.800812]}, "properties": {"label": "5 Impasse des Saules 77515 Faremoutiers", "score": 0.69983415860735, "housenumber": "5", "id": "77176_0688_00005", "name": "5 Impasse des Saules", "postcode": "77515", "citycode": "77176", "x": 699017.21, "y": 6855637.18, "city": "Faremoutiers", "context": "77, Seine-et-Marne, \u00cele-de-France", "type": "housenumber", "importance": 0.42158, "street": "Impasse des Saules"}}], "attribution": "BAN", "licence": "ETALAB-2.0", "query": "3/5 Impasse des Saules, 77515 Faremoutiers, France", "limit": 1}}, {"name": "CR\u00c9CY-LA-CHAPELLE", "address": "Rue de la Croix des Agneaux, 77580 Cr\u00e9cy-la-Chapelle, France", "geo": {"type": "FeatureCollection", "version": "draft", "features": [{"type": "Feature", "geometry": {"type": "Point", "coordinates": [2.901459, 48.860983]}, "properties": {"label": "Rue de la Croix des Agneaux 77580 Cr\u00e9cy-la-Chapelle", "score": 0.7596833492822966, "id": "77142_0460", "name": "Rue de la Croix des Agneaux", "postcode": "77580", "citycode": "77142", "x": 692770.29, "y": 6862332.17, "city": "Cr\u00e9cy-la-Chapelle", "context": "77, Seine-et-Marne, \u00cele-de-France", "type": "street", "importance": 0.46178}}], "attribution": "BAN", "licence": "ETALAB-2.0", "query": "Rue de la Croix des Agneaux, 77580 Cr\u00e9cy-la-Chapelle, France", "limit": 1}}, {"name": "SAINT-GERMAIN-SUR-MORIN", "address": "1 Rue de la Grande Couture, 77860 Saint-Germain-sur-Morin, France", "geo": {"type": "FeatureCollection", "version": "draft", "features": [{"type": "Feature", "geometry": {"type": "Point", "coordinates": [2.840471, 48.88383]}, "properties": {"label": "1 Rue de la Grande Couture 77860 Saint-Germain-sur-Morin", "score": 0.7680400879765394, "housenumber": "1", "id": "77413_0296_00001", "name": "1 Rue de la Grande Couture", "postcode": "77860", "citycode": "77413", "x": 688300.89, "y": 6864879.98, "city": "Saint-Germain-sur-Morin", "context": "77, Seine-et-Marne, \u00cele-de-France", "type": "housenumber", "importance": 0.46457, "street": "Rue de la Grande Couture"}}], "attribution": "BAN", "licence": "ETALAB-2.0", "query": "1 Rue de la Grande Couture, 77860 Saint-Germain-sur-Morin, France", "limit": 1}}, {"name": "LA FERT\u00c9-SOUS-JOUARRE", "address": "14 Avenue de Rebais, 77260 La Fert\u00e9-sous-Jouarre, France", "geo": {"type": "FeatureCollection", "version": "draft", "features": [{"type": "Feature", "geometry": {"type": "Point", "coordinates": [3.127387, 48.938815]}, "properties": {"label": "14 Avenue de Rebais 77260 La Fert\u00e9-sous-Jouarre", "score": 0.7672346140651801, "housenumber": "14", "id": "77183_0580_00014", "name": "14 Avenue de Rebais", "postcode": "77260", "citycode": "77183", "x": 709332.11, "y": 6870990.06, "city": "La Fert\u00e9-sous-Jouarre", "context": "77, Seine-et-Marne, \u00cele-de-France", "type": "housenumber", "importance": 0.62826, "street": "Avenue de Rebais"}}], "attribution": "BAN", "licence": "ETALAB-2.0", "query": "14 Avenue de Rebais, 77260 La Fert\u00e9-sous-Jouarre, France", "limit": 1}}, {"name": "TRILPORT", "address": "Rue de la Halotte, 77470 Trilport, France", "geo": {"type": "FeatureCollection", "version": "draft", "features": [{"type": "Feature", "geometry": {"type": "Point", "coordinates": [2.963342, 48.959955]}, "properties": {"label": "Rue de la Halotte 77470 Trilport", "score": 0.7116586602870812, "id": "77475_0373", "name": "Rue de la Halotte", "postcode": "77470", "citycode": "77475", "x": 697315.6, "y": 6873334.01, "city": "Trilport", "context": "77, Seine-et-Marne, \u00cele-de-France", "type": "street", "importance": 0.48614}}], "attribution": "BAN", "licence": "ETALAB-2.0", "query": "Rue de la Halotte, 77470 Trilport, France", "limit": 1}}, {"name": "MEAUX", "address": "12 Chemin du Canal, 77100 Meaux, France", "geo": {"type": "FeatureCollection", "version": "draft", "features": [{"type": "Feature", "geometry": {"type": "Point", "coordinates": [2.899442, 48.959908]}, "properties": {"label": "12 Chemin du Canal 77100 Meaux", "score": 0.7131081818181818, "housenumber": "12", "id": "77284_0176_00012", "name": "12 Chemin du Canal", "postcode": "77100", "citycode": "77284", "x": 692636.31, "y": 6873332.85, "city": "Meaux", "context": "77, Seine-et-Marne, \u00cele-de-France", "type": "housenumber", "importance": 0.59419, "street": "Chemin du Canal"}}], "attribution": "BAN", "licence": "ETALAB-2.0", "query": "12 Chemin du Canal, 77100 Meaux, France", "limit": 1}}, {"name": "MITRY-MORY", "address": "19-21 Rue des Fr\u00e8res Lumi\u00e8re, 77290 Mitry-Mory, France", "geo": {"type": "FeatureCollection", "version": "draft", "features": [{"type": "Feature", "geometry": {"type": "Point", "coordinates": [2.62853, 48.976503]}, "properties": {"label": "21 Rue des Freres Lumi\u00e8re 77290 Mitry-Mory", "score": 0.709752192513369, "housenumber": "21", "id": "77294_0554_00021", "name": "21 Rue des Freres Lumi\u00e8re", "postcode": "77290", "citycode": "77294", "x": 672806.68, "y": 6875237.6, "city": "Mitry-Mory", "context": "77, Seine-et-Marne, \u00cele-de-France", "type": "housenumber", "importance": 0.57198, "street": "Rue des Freres Lumi\u00e8re"}}], "attribution": "BAN", "licence": "ETALAB-2.0", "query": "19-21 Rue des Fr\u00e8res Lumi\u00e8re, 77290 Mitry-Mory, France", "limit": 1}}, {"name": "LIZY-SUR-OURCQ", "address": "22 Route de Beauval, 77440 Lizy-sur-Ourcq, France", "geo": {"type": "FeatureCollection", "version": "draft", "features": [{"type": "Feature", "geometry": {"type": "Point", "coordinates": [3.01003, 49.030276]}, "properties": {"label": "22 Route de Beauval 77440 Lizy-sur-Ourcq", "score": 0.7390413438735177, "housenumber": "22", "id": "77257_0100_00022", "name": "22 Route de Beauval", "postcode": "77440", "citycode": "77257", "x": 700733.49, "y": 6881153.78, "city": "Lizy-sur-Ourcq", "context": "77, Seine-et-Marne, \u00cele-de-France", "type": "housenumber", "importance": 0.49902, "street": "Route de Beauval"}}], "attribution": "BAN", "licence": "ETALAB-2.0", "query": "22 Route de Beauval, 77440 Lizy-sur-Ourcq, France", "limit": 1}}, {"name": "DAMMARTIN-EN-GO\u00cbLE", "address": "11 Rue Louis Braille, 77230 Dammartin-en-Go\u00eble, France", "geo": {"type": "FeatureCollection", "version": "draft", "features": [{"type": "Feature", "geometry": {"type": "Point", "coordinates": [2.671171, 49.051261]}, "properties": {"label": "11 Rue Louis Braille 77230 Dammartin-en-Go\u00eble", "score": 0.7488914438502673, "housenumber": "11", "id": "77153_0664_00011", "name": "11 Rue Louis Braille", "postcode": "77230", "citycode": "77153", "x": 675962.8, "y": 6883537.61, "city": "Dammartin-en-Go\u00eble", "context": "77, Seine-et-Marne, \u00cele-de-France", "type": "housenumber", "importance": 0.4731, "street": "Rue Louis Braille"}}], "attribution": "BAN", "licence": "ETALAB-2.0", "query": "11 Rue Louis Braille, 77230 Dammartin-en-Go\u00eble, France", "limit": 1}}, {"name": "SAINT-SOUPPLETS", "address": "22 Rue du Mar\u00e9chal Gallieni, 77165 Saint-Soupplets, France", "geo": {"type": "FeatureCollection", "version": "draft", "features": [{"type": "Feature", "geometry": {"type": "Point", "coordinates": [2.799678, 49.037878]}, "properties": {"label": "22 Rue du Mar\u00e9chal Galli\u00e9ni 77165 Saint-Soupplets", "score": 0.7617123140495867, "housenumber": "22", "id": "77437_0300_00022", "name": "22 Rue du Mar\u00e9chal Galli\u00e9ni", "postcode": "77165", "citycode": "77437", "x": 685352.78, "y": 6882017.76, "city": "Saint-Soupplets", "context": "77, Seine-et-Marne, \u00cele-de-France", "type": "housenumber", "importance": 0.52429, "street": "Rue du Mar\u00e9chal Galli\u00e9ni"}}], "attribution": "BAN", "licence": "ETALAB-2.0", "query": "22 Rue du Mar\u00e9chal Gallieni, 77165 Saint-Soupplets, France", "limit": 1}}, {"name": "\u00c9TAT-MAJOR", "address": "56 Avenue de Corbeil, 77000 Melun, France", "geo": {"type": "FeatureCollection", "version": "draft", "features": [{"type": "Feature", "geometry": {"type": "Point", "coordinates": [2.63191, 48.552633]}, "properties": {"label": "56 Avenue de Corbeil 77000 Melun", "score": 0.7275432057416267, "housenumber": "56", "id": "77288_0340_00056", "name": "56 Avenue de Corbeil", "postcode": "77000", "citycode": "77288", "x": 672834.42, "y": 6828108.45, "city": "Melun", "context": "77, Seine-et-Marne, \u00cele-de-France", "type": "housenumber", "importance": 0.66087, "street": "Avenue de Corbeil"}}], "attribution": "BAN", "licence": "ETALAB-2.0", "query": "56 Avenue de Corbeil, 77000 Melun, France", "limit": 1}}]